{
   "type": "FeatureCollection",
   "features": [
  {
    "type": "Feature",
    "geometry": {
       "type": "Point",
       "coordinates":  [ 121.112389759927,24.895804207263 ]
    },
    "properties": {
    "葬別":"樹葬",
    "區別":"楊梅區",
    "名稱":"桂花園",
    "地址":"桃園市楊梅區中山南路800巷41號"
    }
  },
  {
    "type": "Feature",
    "geometry": {
       "type": "Point",
       "coordinates":  [ 121.114389759927,24.897804207263 ]
    },
    "properties": {
    "葬別":"樹葬",
    "區別":"楊梅區",
    "名稱":"楊梅園",
    "地址":"桃園市楊梅區中山南路800巷41號"
    }
  },
  {
    "type": "Feature",
    "geometry": {
       "type": "Point",
       "coordinates":  [ 121.300362161199,25.087524117641 ]
    },
    "properties": {
    "葬別":"樹葬",
    "區別":"蘆竹區",
    "名稱":"追思園",
    "地址":"桃園市蘆竹區外社里8鄰興化路300號"
    }
  },
  {
    "type": "Feature",
    "geometry": {
       "type": "Point",
       "coordinates":  [ 121.176904579678,24.870339432334 ]
    },
    "properties": {
    "葬別":"樹葬",
    "區別":"龍潭區",
    "名稱":"龍園",
    "地址":"桃園市龍潭區楊銅路二段325巷200號"
    }
  },
  {
    "type": "Feature",
    "geometry": {
       "type": "Point",
       "coordinates":  [ 121.203833984936,25.070405002415 ]
    },
    "properties": {
    "葬別":"樹葬",
    "區別":"大園區",
    "名稱":"安祥園",
    "地址":"桃園市大園區中華路259號"
    }
  },
  {
    "type": "Feature",
    "geometry": {
       "type": "Point",
       "coordinates":  [ 121.314097921209,25.020636697939 ]
    },
    "properties": {
    "葬別":"海葬",
    "區別":"桃園區",
    "名稱":"桃園市政府殯葬管理所桃園區殯葬服務中心",
    "地址":"桃園市桃園區大有路916號"
    }
  },
  {
    "type": "Feature",
    "geometry": {
       "type": "Point",
       "coordinates":  [ 121.226222467413,24.976046817065 ]
    },
    "properties": {
    "葬別":"海葬",
    "區別":"中壢區",
    "名稱":"桃園市政府殯葬管理所中壢區殯葬服務中心",
    "地址":"桃園市中壢區培英路289號"
    }
  }
]
}